,City,Cloudiness,Country,Date,Humidity,Lat,Lng,Max Temp,Wind Speed
0,Severo-Kurilsk,100,RU,1559237384,93,50.68,156.12,4.47,17.48
1,Mataura,39,NZ,1559247315,86,-46.19,168.86,4.77,1.77
2,Atuona,18,PF,1559229962,76,-9.8,-139.03,28.27,7.88
3,Nome,40,US,1559215063,83,30.04,-94.42,31.11,4.1
4,Ushuaia,20,AR,1559220082,60,-54.81,-68.31,5.0,5.1
5,Hermanus,100,ZA,1559194774,90,-34.42,19.24,15.0,3.57
6,San Cristobal,75,EC,1559214536,67,-0.39,-78.55,18.0,3.1
7,Mar del Plata,1,AR,1559217678,40,-46.43,-67.52,6.97,3.62
8,Riberalta,75,BO,1559212569,70,-11.0,-66.08,30.0,1.18
9,Rikitea,100,PF,1559230377,80,-23.12,-134.97,24.87,5.96
10,Egvekinot,64,RU,1559307688,93,66.32,-179.17,-0.44,1.78
11,Gemena,63,CD,1559190586,63,3.25,19.78,26.37,0.45
12,Kaeo,1,NZ,1559244204,91,-35.1,173.78,15.0,6.44
13,Vaini,89,IN,1559176253,81,15.34,74.49,27.67,1.95
14,Vila Franca do Campo,40,PT,1559197366,83,37.72,-25.43,21.0,4.1
15,Punta Arenas,0,CL,1559220186,71,-53.16,-70.91,5.0,1.5
16,Hilo,90,US,1559230875,83,19.71,-155.08,22.78,4.1
17,Channel-Port aux Basques,28,CA,1559203487,74,47.57,-59.14,6.57,3.64
18,Esperance,40,TT,1559209398,55,10.24,-61.45,32.22,6.7
19,Whitianga,35,NZ,1559244000,89,-36.83,175.7,17.22,2.68
20,Avarua,75,CK,1559236120,83,-21.21,-159.78,23.0,5.7
21,Hobart,40,AU,1559251828,93,-42.88,147.33,10.0,3.6
22,East London,0,ZA,1559192497,88,-33.02,27.91,18.0,4.6
23,Busselton,100,AU,1559258024,34,-33.64,115.35,18.33,8.1
24,Tank,68,PK,1559175216,21,32.22,70.39,28.67,3.41
25,Kapaa,90,US,1559231625,83,22.08,-159.32,24.0,4.6
26,Port Elizabeth,75,US,1559208984,65,39.31,-74.98,30.56,2.1
27,Ambilobe,68,MG,1559185150,89,-13.19,49.05,22.37,2.09
28,Narsaq,20,GL,1559195270,14,60.91,-46.05,16.0,9.3
29,Rameshki,50,RU,1559177470,77,57.35,36.05,13.17,2.17
30,Gay,0,RU,1559174234,40,51.47,58.44,23.0,3.0
31,Airai,15,TL,1559252815,74,-8.93,125.41,23.57,4.22
32,Thompson,90,CA,1559210257,71,55.74,-97.86,4.0,2.1
33,Jamestown,0,AU,1559252382,89,-33.21,138.6,6.87,1.3
34,Cidreira,100,BR,1559210877,85,-30.17,-50.22,17.07,6.91
35,Rjukan,64,NO,1559182787,74,59.88,8.59,1.67,9.39
36,Chokurdakh,100,RU,0,88,70.62,147.9,-0.14,6.63
37,Taoudenni,6,ML,1559194278,10,22.68,-3.98,40.57,3.57
38,Bradford,40,GB,1559187927,68,53.79,-1.75,22.0,6.2
39,Byron Bay,0,AU,1559248177,69,-28.65,153.62,11.0,2.6
40,Ejea de los Caballeros,0,ES,1559190751,21,42.13,-1.14,29.44,8.7
41,Ornskoldsvik,100,SE,1559177991,93,63.29,18.72,8.0,7.2
42,Port Alfred,63,ZA,1559192820,56,-33.59,26.89,17.27,2.86
43,Dovolnoye,0,RU,1559254487,79,54.5,79.67,9.27,4.39
44,Dauphin,1,CA,1559212341,43,51.15,-100.04,21.0,1.5
45,Hithadhoo,100,MV,1559178162,79,-0.6,73.08,27.57,4.52
46,Mehamn,75,NO,0,80,71.03,27.85,5.0,9.3
47,Arona,0,IT,1559187670,43,45.76,8.56,25.56,3.1
48,Kodiak,20,US,1559213616,56,39.95,-94.76,21.67,3.1
49,Iqaluit,75,CA,1559198476,75,63.75,-68.52,5.0,3.1
50,Yarim,100,YE,1559183587,64,14.3,44.38,22.67,2.25
51,Saldanha,0,PT,1559192184,23,41.42,-6.55,28.97,0.58
52,Sao Filipe,0,CV,1559200055,86,14.9,-24.5,23.77,7.26
53,Canavieiras,20,BR,1559206527,79,-15.68,-38.95,30.0,2.6
54,Olonets,0,RU,1559176284,56,60.98,32.97,7.87,4.66
55,Bethel,90,US,1559223083,76,60.79,-161.76,11.0,2.6
56,Brae,21,GB,1559184868,61,60.4,-1.35,9.0,6.7
57,Vilhena,40,BR,1559211319,54,-12.74,-60.15,29.0,3.6
58,Mogadishu,87,SO,1559184567,80,2.04,45.34,26.67,5.32
59,Albany,75,US,1559208069,60,42.65,-73.75,21.67,4.1
60,Baykit,99,RU,1559246907,94,61.68,96.39,10.67,2.2
61,Butaritari,100,KI,1559240284,80,3.07,172.79,28.27,6.45
62,Samarai,95,PG,1559246918,92,-10.62,150.67,23.17,2.11
63,Ozernovskiy,99,RU,1559237047,82,51.5,156.52,7.17,7.41
64,Half Moon Bay,75,US,1559220682,93,37.46,-122.43,17.78,4.1
65,Puerto Ayora,20,EC,1559217402,69,-0.74,-90.35,27.0,7.2
66,Mattru,100,SL,1559197749,84,7.62,-11.83,27.27,2.98
67,Kaitangata,67,NZ,1559247096,91,-46.28,169.85,4.44,1.79
68,Yellowknife,75,CA,1559210574,69,62.45,-114.38,1.0,1.5
69,Boa Vista,40,BR,1559209937,55,2.82,-60.67,31.0,5.7
70,Marovoay,20,MG,1559186025,78,-16.11,46.64,26.0,2.1
71,Ko Samui,98,TH,1559257135,74,9.54,99.94,29.07,1.57
72,Georgetown,75,GY,1559208949,62,6.8,-58.16,32.0,6.2
73,Madimba,40,CM,1559192837,78,4.42,9.93,28.0,1.5
74,Porto Novo,40,BR,1559208947,65,-23.68,-45.44,26.0,2.1
75,San Patricio,100,PY,1559212068,98,-26.98,-56.83,18.07,1.94
76,Bathsheba,75,BB,1559208634,66,13.22,-59.52,31.0,8.7
77,Voi,42,KE,1559186712,86,-3.4,38.57,20.67,4.13
78,Arraial do Cabo,0,BR,1559208045,74,-22.97,-42.02,27.0,6.7
79,Tiarei,75,PF,1559233217,88,-17.53,-149.33,24.0,1.0
80,Sao Francisco,75,BR,1559211194,94,-25.65,-53.85,24.0,1.5
81,Vardo,20,US,1559209592,57,39.62,-77.74,31.11,2.1
82,Tuktoyaktuk,75,CA,0,80,69.44,-133.03,1.0,5.1
83,Tuatapere,63,NZ,1559247583,64,-46.13,167.69,9.37,7.46
84,Puerto Carreno,75,CO,1559211247,78,6.19,-67.49,28.0,2.04
85,Buala,100,SB,1559244534,81,-8.15,159.59,27.37,6.77
86,Ahipara,23,NZ,1559244363,77,-35.17,173.16,18.57,13.28
87,Hanzhong,15,CN,1559252682,64,33.08,107.03,16.67,1.48
88,Souillac,20,FR,1559189903,49,45.6,-0.6,24.44,3.6
89,Cape Town,0,ZA,1559194902,82,-33.93,18.42,16.11,1.5
90,Mahebourg,20,MU,1559183823,77,-20.41,57.7,20.56,3.6
91,Lompoc,1,US,1559220655,87,34.64,-120.46,16.67,3.6
92,Cabo San Lucas,40,MX,1559219674,54,22.89,-109.91,28.89,4.1
93,Darnah,86,LY,1559186595,74,32.77,22.64,21.17,2.4
94,Ratnagiri,65,IN,1559176365,84,16.98,73.3,28.97,4.49
95,Itarema,88,BR,1559205506,89,-2.92,-39.92,27.07,4.71
96,Castro,90,CL,1559218398,100,-42.48,-73.76,9.0,2.1
97,Matay,0,EG,1559185232,14,28.42,30.79,35.57,9.74
98,Bluff,99,AU,1559248665,37,-23.58,149.07,13.27,9.0
99,Bambanglipuro,55,ID,1559256351,80,-7.95,110.28,27.17,8.17
100,Aklavik,75,CA,0,74,68.22,-135.01,6.0,2.6
101,Norman Wells,90,CA,1559210736,86,65.28,-126.83,5.0,2.6
102,Carnarvon,90,ZA,1559193610,24,-30.97,22.13,16.87,3.22
103,Talnakh,90,RU,0,100,69.49,88.39,1.0,6.0
104,Lagoa Formosa,19,BR,1559208641,54,-18.77,-46.41,27.22,0.45
105,Cimislia,75,MD,1559182646,88,46.52,28.78,19.0,1.5
106,North Bend,90,US,1559220025,87,43.41,-124.22,13.89,6.2
107,Newport,6,GB,1559188935,63,51.59,-3.0,21.11,9.8
108,Luderitz,89,NA,1559194744,87,-26.65,15.16,14.0,5.1
109,Kampong Thum,100,KH,1559255627,86,12.71,104.89,26.77,0.98
110,Tasiilaq,9,GL,1559188922,74,65.61,-37.64,2.0,6.2
111,Lagoa,0,PT,1559193388,47,37.14,-8.45,27.22,8.2
112,Middletown,75,US,1559208461,73,41.45,-74.42,23.33,2.1
113,Alyangula,98,AU,1559250662,57,-13.85,136.42,24.0,3.6
114,Kidal,0,ML,1559193460,7,18.44,1.41,40.67,5.49
115,Dakoro,57,NE,1559192594,22,14.51,6.76,39.07,4.15
116,Gat,0,SN,1559198167,54,14.69,-16.54,29.0,7.7
117,Luang Prabang,100,LA,1559255521,95,19.89,102.14,21.97,0.85
118,Stawell,98,AU,1559251942,91,-37.06,142.77,10.0,2.68
119,Lavrentiya,68,RU,1559307067,84,65.58,-170.99,0.37,3.94
120,Matara,0,PE,1559214480,47,-13.74,-72.9,13.0,2.62
121,Moyale,14,ET,1559185935,78,3.52,39.05,21.07,2.19
122,Ramhormoz,0,IR,1559180336,11,31.28,49.6,39.0,4.1
123,Scarborough,100,GB,1559187435,72,54.28,-0.41,21.11,5.1
124,Haapiti,75,PF,1559233351,88,-17.57,-149.87,24.0,1.0
125,Rocha,100,UY,1559212449,66,-34.48,-54.34,10.87,3.56
126,Antofagasta,20,CL,1559214936,63,-23.65,-70.4,20.0,4.6
127,Uyovu,57,TZ,1559188391,73,-3.28,31.53,20.47,1.72
128,Pinsk,29,BY,1559181797,77,52.11,26.1,14.47,2.73
129,Bredasdorp,90,ZA,1559194597,82,-34.53,20.04,14.0,1.0
130,Talcahuano,90,CL,1559217288,93,-36.72,-73.12,15.0,7.2
131,Uruzgan,0,AF,1559176017,27,32.93,66.63,16.67,1.78
132,Hopkinsville,75,US,1559212396,78,36.87,-87.49,24.44,3.1
133,Grindavik,20,IS,1559187348,40,63.84,-22.43,11.0,3.1
134,Barahona,90,DO,1559210887,83,18.21,-71.1,27.0,4.1
135,Dikson,93,RU,0,88,73.51,80.55,-0.14,10.44
136,Emerald,100,AU,1559248878,47,-23.53,148.16,14.0,6.7
137,Bonaventure,90,CA,1559204895,76,48.04,-65.49,13.0,4.1
138,Zhanakorgan,68,KZ,1559173988,35,43.91,67.25,27.77,2.52
139,Bada,48,NG,1559193349,26,12.41,4.51,38.27,2.68
140,Victoria,75,BN,1559253883,88,5.28,115.24,27.0,1.64
141,Port Blair,100,IN,1559172247,71,11.67,92.75,29.67,4.05
142,Agadez,0,NE,1559192040,39,16.97,7.99,37.0,7.2
143,Nuuk,40,GL,1559194043,54,64.17,-51.74,13.0,3.6
144,Parkes,0,AU,1559250072,88,-33.14,148.18,3.33,3.08
145,Provideniya,0,RU,1559309116,66,64.42,-173.23,3.27,3.45
146,Tiksi,91,RU,0,95,71.64,128.87,-0.14,3.54
147,Lokosovo,69,RU,1559166152,61,61.13,74.84,4.47,3.59
148,Atar,1,MR,1559196701,7,20.52,-13.05,39.47,5.42
149,Qaanaaq,15,GL,0,74,77.48,-69.36,0.67,0.9
150,Saint-Philippe,75,CA,1559207439,56,45.36,-73.48,21.67,8.2
151,Dhidhdhoo,97,MV,1559177437,78,6.88,73.1,29.57,4.68
152,Comodoro Rivadavia,0,AR,1559217550,61,-45.87,-67.48,8.0,1.0
153,Okha,0,RU,1559239632,90,53.59,142.95,2.77,4.2
154,Chuy,100,UY,1559212127,64,-33.69,-53.46,13.67,5.8
155,Ancud,90,CL,1559218304,100,-41.87,-73.83,9.0,2.1
156,Khatanga,98,RU,0,89,71.98,102.47,4.77,5.83
157,Saskylakh,85,RU,0,92,71.97,114.09,-0.74,5.5
158,Yuci,0,CN,1559250599,16,37.68,112.73,19.0,4.0
159,Guangyuan,76,CN,1559253056,79,32.43,105.86,20.56,0.4
160,Stulovo,40,RU,1559177559,82,55.85,38.31,20.56,1.0
161,Saint Anthony,1,US,1559216901,45,43.97,-111.68,18.89,2.1
162,Kalmunai,100,LK,1559175292,87,7.42,81.82,26.17,0.77
163,Chicama,90,PE,1559215397,83,-7.84,-79.15,21.0,5.1
164,Palauig,95,PH,1559251741,71,15.44,119.9,30.47,5.02
165,Hauterive,90,FR,1559188821,52,46.09,3.45,20.0,3.1
166,Krasnyy Yar,31,RU,1559177747,53,50.7,44.73,21.97,1.61
167,Sydney,0,AU,1559249442,61,-33.85,151.22,9.44,6.2
168,Thinadhoo,100,MV,1559178090,82,0.53,72.93,27.37,5.6
169,Talara,40,PE,1559215591,290,-4.58,-81.27,17.0,7.7
170,Borogontsy,32,RU,1559237829,74,62.67,131.17,7.37,2.14
171,Cherskiy,30,RU,0,62,68.75,161.3,7.67,2.9
172,Iskateley,99,RU,0,77,67.68,53.15,3.87,5.51
173,Yeniseysk,100,RU,1559249816,94,58.45,92.17,13.57,2.17
174,Anloga,20,GH,1559194872,83,5.79,0.9,28.0,5.7
175,Almora,0,IN,1559173351,21,29.6,79.66,21.47,2.38
176,Karoi,23,ZW,1559190170,50,-16.82,29.68,15.57,1.05
177,Gumdag,9,TM,1559177917,54,39.2,54.59,21.37,3.54
178,New Norfolk,40,AU,1559251875,93,-42.78,147.06,10.0,3.6
179,Coahuayana,64,MX,1559217861,29,18.62,-100.35,37.27,1.42
180,Mandera,51,ET,1559185220,53,3.94,41.86,29.17,5.47
181,Ingham,83,AU,1559248821,98,-18.65,146.16,18.07,1.21
182,Kavieng,48,PG,1559246105,76,-2.57,150.8,29.07,5.32
183,Upernavik,0,GL,0,84,72.79,-56.15,0.17,2.43
184,La Ronge,90,CA,1559212289,66,55.1,-105.3,9.0,3.1
185,Ostrovnoy,13,RU,0,49,68.05,39.51,11.17,5.32
186,Nikolskoye,0,RU,1559177565,21,59.7,30.79,15.0,3.0
187,Mizan Teferi,99,ET,1559186432,94,6.99,35.58,17.97,0.44
188,Mangrol,4,IN,1559174648,13,25.33,76.51,39.87,3.77
189,Krasnaya Gorbatka,81,RU,1559176724,85,55.87,41.76,19.47,1.63
190,Ilhabela,0,BR,1559208939,84,-23.78,-45.36,24.87,7.07
191,Chaozhou,20,CN,1559251612,88,23.66,116.62,24.0,2.0
192,Micheweni,1,TZ,1559186560,75,-4.97,39.83,27.97,7.1
193,Batagay-Alyta,97,RU,0,96,67.8,130.41,-0.24,1.44
194,Mahibadhoo,95,MV,1559177769,77,3.78,72.97,29.27,5.84
195,Pampas,78,PE,1559214818,26,-12.4,-74.87,15.37,4.99
196,Marshall,40,US,1559212019,64,39.39,-87.69,25.0,3.6
197,Solnechnyy,68,RU,1559242045,95,50.72,136.64,4.27,0.28
198,Nouadhibou,0,MR,1559197610,73,20.93,-17.03,21.0,9.3
199,Gol,0,IN,1559175619,33,25.38,72.44,35.77,6.43
200,Ilulissat,5,GL,0,65,69.22,-51.1,7.0,2.6
201,Pacific Grove,40,US,1559220697,71,36.62,-121.92,16.67,3.1
202,Solano,96,PH,1559251319,90,16.52,121.18,18.77,0.87
203,Aginskoye,53,RU,1559247233,61,51.11,114.54,5.67,1.91
204,Khandbari,51,NP,1559171827,79,27.38,87.21,11.17,1.43
205,Prokopyevsk,56,RU,1559253009,97,53.89,86.74,11.27,3.45
206,Tahe,49,CN,1559244418,93,52.34,124.71,3.97,2.14
207,Lebu,87,ET,1559185482,55,8.96,38.73,18.17,1.37
208,Charyshskoye,92,RU,1559254577,85,51.4,83.56,11.77,2.86
209,Hannibal,40,US,1559212843,64,39.71,-91.36,23.89,4.6
210,Doha,0,QA,1559180648,46,25.29,51.53,34.0,3.1
211,Avera,1,US,1559211770,34,33.19,-82.53,36.11,5.1
212,Katsuura,75,JP,1559245965,73,33.93,134.5,21.11,6.2
213,Hasaki,75,JP,1559244172,82,35.73,140.83,18.0,2.1
214,Puerto Leguizamo,77,CO,1559213612,43,-0.19,-74.78,34.67,1.12
215,Havoysund,75,NO,0,93,71.0,24.66,5.0,15.9
216,Walvis Bay,75,NA,1559194472,82,-22.95,14.51,15.0,4.1
217,Moche,90,PE,1559215395,83,-8.17,-79.01,21.0,5.1
218,Narasannapeta,85,IN,1559173633,80,18.42,84.04,29.57,4.0
219,Arieseni,3,RO,1559184097,92,46.48,22.77,13.37,1.35
220,Rawson,100,AR,1559216472,50,-43.3,-65.11,9.67,8.43
221,Cayenne,55,GF,1559207730,88,4.94,-52.33,27.0,3.1
222,Chiochis,20,RO,1559183642,82,46.98,24.18,20.0,1.5
223,Point Pedro,72,LK,1559175437,85,9.82,80.23,28.97,11.84
224,Constitucion,5,MX,1559218287,12,23.99,-104.67,26.11,3.1
225,Berlevag,75,NO,0,80,70.86,29.09,5.0,9.3
226,Tena,75,EC,1559214419,61,-0.99,-77.82,27.0,1.8
227,Imeni Poliny Osipenko,21,RU,1559241567,96,52.42,136.49,2.87,1.23
228,Broome,40,GB,1559187596,68,52.47,1.45,22.78,5.7
229,Fairbanks,90,US,1559216293,54,64.84,-147.72,15.0,2.1
230,Coihueco,75,CL,1559216964,100,-36.63,-71.83,14.0,8.2
231,Nynashamn,0,SE,1559181069,58,58.9,17.95,13.33,6.7
232,Rondonopolis,18,BR,1559210374,34,-16.46,-54.64,33.77,3.39
233,Yumen,33,CN,1559253910,21,40.29,97.04,18.47,2.24
234,Saint-Augustin,0,FR,1559190074,53,44.83,-0.61,24.44,3.6
235,San Jeronimo,0,PE,1559214584,41,-13.65,-73.37,16.0,4.21
236,Touros,66,BR,1559204655,79,-5.2,-35.46,27.97,8.44
237,Barrow,100,AR,1559214439,51,-38.31,-60.23,11.07,3.0
238,Bahia Blanca,100,AR,1559214995,46,-38.72,-62.27,12.47,3.65
239,Muhos,0,FI,1559174724,53,64.81,26.0,12.78,6.7
240,Ontario,1,US,1559220067,68,34.07,-117.65,23.89,3.04
241,Houma,87,CN,1559251258,16,35.63,111.36,20.57,2.62
242,Palotina,40,BR,1559211032,78,-24.28,-53.84,27.0,7.2
243,Nkhata Bay,67,MW,1559188534,92,-11.61,34.3,14.67,0.88
244,Mayumba,100,GA,1559193418,86,-3.44,10.65,25.17,4.53
245,Peshawar,20,PK,1559174672,29,34.01,71.58,32.0,4.1
246,Pevek,1,RU,0,90,69.7,170.27,-1.14,0.89
247,Laredo,75,US,1559216616,62,27.51,-99.51,31.67,5.1
248,Bacolod,95,PH,1559251498,77,10.68,122.95,28.97,5.79
249,Longyearbyen,75,NO,0,64,78.22,15.63,1.0,11.3
250,Torbay,20,CA,1559201928,70,47.66,-52.73,12.78,6.7
251,Kavaratti,93,IN,1559177184,76,10.57,72.64,29.97,4.08
252,Boyuibe,75,BO,1559212869,73,-20.43,-63.28,23.0,2.1
253,Cocobeach,40,GA,1559193249,78,1.01,9.58,28.0,3.6
254,Pangnirtung,20,CA,1559194771,51,66.15,-65.72,2.0,3.6
255,Ixtapa,90,MX,1559218796,83,20.71,-105.21,26.11,2.6
256,Bambous Virieux,20,MU,1559183801,77,-20.34,57.76,20.56,3.6
257,Harper,90,US,1559216185,78,30.3,-99.24,27.78,4.1
258,Zhigansk,0,RU,1559234281,85,66.77,123.37,2.07,5.06
259,Pisco,20,PE,1559215269,30,-13.71,-76.2,22.0,4.1
260,Manuk Mangkaw,46,PH,1559252823,68,4.8,119.85,29.77,2.44
261,Xiuyan,48,CN,1559247617,89,40.29,123.27,9.27,2.24
262,Eureka,90,US,1559220516,100,40.8,-124.16,15.56,3.6
263,Huilong,0,CN,1559252505,91,28.89,110.18,15.77,0.16
264,Mount Pleasant,75,US,1559214759,73,33.16,-94.97,26.11,2.6
265,Hokitika,85,NZ,1559246124,73,-42.72,170.96,9.57,2.48
266,Vestmannaeyjar,0,IS,1559187201,57,63.44,-20.27,9.0,5.1
267,Abancay,0,PE,1559214465,41,-13.64,-72.88,16.0,2.85
268,Front Royal,1,US,1559209822,69,38.92,-78.19,32.22,3.6
269,Faanui,42,PF,1559233688,68,-16.48,-151.75,27.07,2.08
270,Tual,43,ID,1559250736,82,-5.67,132.75,27.67,8.18
271,Berezovyy,11,RU,1559241990,95,51.67,135.7,1.47,1.37
272,Sistranda,40,NO,1559179963,75,63.73,8.83,8.33,6.7
273,Novo Aripuana,98,BR,1559210629,81,-5.12,-60.38,29.27,1.23
274,Ivdel,69,RU,1559169879,93,60.7,60.42,14.27,1.18
275,Baculin,70,PH,1559250949,84,7.45,126.58,23.77,1.09
276,Ponta do Sol,34,BR,1559208742,64,-20.63,-46.0,25.07,1.79
277,Inirida,100,CO,1559211576,96,3.87,-67.92,24.77,1.65
278,Ribeira Grande,40,PT,1559198017,94,38.52,-28.7,20.0,3.6
279,College,90,US,1559216289,54,64.86,-147.8,16.67,2.1
280,Mount Isa,0,AU,1559250647,43,-20.73,139.49,13.0,7.2
281,Karratha,0,AU,1559256083,23,-20.74,116.85,22.57,6.79
282,Makakilo City,1,US,1559231413,73,21.35,-158.09,27.22,2.1
283,Saint-Francois,0,FR,1559188635,59,46.42,3.91,19.0,3.6
284,Clyde River,20,CA,0,99,70.47,-68.59,2.0,2.6
285,Moose Factory,90,CA,1559207648,65,51.26,-80.61,5.0,4.6
286,Mount Gambier,90,AU,1559252539,100,-37.83,140.78,11.0,5.1
287,Henties Bay,8,NA,1559194434,91,-22.12,14.28,14.44,2.68
288,Tomatlan,93,MX,1559218893,61,19.93,-105.25,29.27,3.94
289,Hailey,40,US,1559217627,63,43.52,-114.32,16.67,2.1
290,The Pas,75,CA,1559211778,43,53.82,-101.24,11.0,6.2
291,Arys,0,KZ,1559173914,41,42.43,68.8,24.0,4.0
292,Port Augusta,90,AU,1559252485,81,-32.49,137.76,9.0,1.5
293,Peterhead,75,AU,1559252635,76,-34.83,138.5,12.22,2.1
294,Tonantins,75,BR,1559212185,46,-2.86,-67.77,34.77,1.14
295,Ajaccio,40,FR,1559188419,60,41.93,8.74,23.0,3.6
296,Lukoyanov,1,RU,1559176396,82,55.03,44.48,20.27,2.84
297,Adrar,0,DZ,1559192761,9,27.87,-0.29,39.0,5.7
298,Ligayan,85,PH,1559252929,67,4.65,119.47,30.27,2.88
299,Griffith,75,AU,1559250743,93,-34.29,146.06,7.0,2.1
300,Marabba,20,SD,1559186715,30,12.35,32.18,36.67,3.47
301,Geraldton,20,CA,1559209605,37,49.72,-86.95,10.0,4.1
302,Olinda,90,EC,1559214981,74,-2.03,-79.75,27.0,1.5
303,Beisfjord,75,NO,0,61,68.38,17.6,8.33,11.3
304,Huarmey,100,PE,1559215375,92,-10.07,-78.15,17.27,5.66
305,Lagos,40,NG,1559194209,83,6.46,3.39,29.0,3.1
306,Port Macquarie,0,AU,1559248705,60,-31.43,152.91,6.67,2.6
307,Codrington,0,AU,1559248306,55,-28.95,153.24,8.0,3.1
308,Nokha,5,IN,1559175101,14,27.56,73.47,38.97,6.3
309,Yar-Sale,100,RU,1559160670,92,66.83,70.83,0.87,8.99
310,Alice Springs,0,AU,1559252326,56,-23.7,133.88,6.0,3.1
311,Popondetta,38,PG,1559247319,74,-8.77,148.24,19.17,1.29
312,Kozhva,78,RU,1559166926,69,65.11,57.05,6.67,3.16
313,Hornepayne,0,CA,1559209219,26,49.22,-84.78,12.27,4.27
314,Fort Nelson,40,CA,1559214835,54,58.81,-122.69,12.0,1.5
315,Sur,1,OM,1559179050,38,22.57,59.53,35.67,4.09
316,Eyl,100,SO,1559182917,52,7.98,49.82,30.37,6.81
317,Leningradskiy,99,RU,0,96,69.38,178.42,0.07,0.81
318,Juneau,90,US,1559217902,71,58.3,-134.42,13.0,4.1
319,Nanortalik,0,GL,1559195543,66,60.14,-45.24,4.97,3.05
320,Methoni,20,GR,1559186206,34,36.82,21.7,27.0,5.1
321,Port Hueneme,90,US,1559220427,82,34.15,-119.2,23.89,2.1
322,Krasnyy Chikoy,35,RU,1559248838,60,50.36,108.75,4.27,1.29
323,Padang,40,ID,1559258053,94,-0.92,100.36,26.0,1.5
324,Pipri,1,IN,1559173221,8,24.21,83.02,35.57,0.98
325,Manggar,100,ID,1559256343,94,-2.88,108.27,25.27,1.51
326,Dingle,98,PH,1559251533,81,11.0,122.67,25.97,2.86
327,Shanhetun,59,CN,1559245803,78,44.7,127.2,12.27,4.86
328,Frankfort,90,US,1559211547,88,38.2,-84.87,22.78,2.6
329,Igarka,98,RU,0,94,67.47,86.57,0.97,3.82
330,Fortuna,0,ES,1559191459,38,38.18,-1.13,24.0,5.7
331,Camargo,0,MX,1559217951,9,27.69,-105.17,30.17,2.51
332,Ayan,81,TR,1559182691,90,40.67,33.6,14.77,2.09
333,Ulcinj,20,ME,1559185905,49,41.93,19.22,22.0,1.0
334,Inuvik,75,CA,0,56,68.36,-133.71,6.0,2.1
335,Coquimbo,75,CL,1559215920,59,-29.95,-71.34,20.0,4.1
336,Esqueda,0,MX,1559218611,19,30.72,-109.59,22.47,5.49
337,Lazarev,0,RU,1559240423,96,52.23,141.51,3.07,5.27
338,Tyler,90,US,1559214955,83,32.35,-95.3,25.0,2.6
339,Gorontalo,100,ID,1559252464,83,0.54,123.06,25.97,2.21
340,Poum,40,MK,1559185670,55,41.28,20.71,19.0,1.5
341,Batagay,3,RU,0,79,67.65,134.64,3.27,4.11
342,Batticaloa,100,LK,1559175294,87,7.71,81.69,26.17,0.77
343,Meiktila,91,MM,1559256916,66,20.88,95.86,28.47,7.14
344,San Andres,88,PH,1559251294,83,13.32,122.68,27.27,1.62
345,Macamic,75,CA,1559207955,50,48.75,-79.0,11.0,6.2
346,Mackenzie,1,CA,1559216464,30,55.34,-123.09,21.0,2.1
347,Heilbron,0,ZA,1559191746,38,-27.29,27.97,13.07,1.92
348,Chifeng,0,CN,1559248278,53,42.27,118.96,9.47,7.38
349,Emilio Carranza,100,MX,1559216815,38,19.97,-96.61,36.17,2.26
350,Hobyo,100,SO,1559183483,66,5.35,48.53,29.27,11.76
351,Tortoli,20,IT,1559188568,56,39.93,9.66,21.0,2.6
352,Codajas,99,BR,1559210909,52,-3.84,-62.06,32.47,1.98
353,Mirnyy,64,RU,1559177709,79,56.57,36.46,14.87,2.45
354,Alindao,77,CF,1559190070,56,5.04,21.21,27.97,1.67
355,Vanimo,74,PG,1559248395,79,-2.67,141.3,28.47,6.26
356,Petatlan,40,MX,1559218202,62,17.52,-101.27,31.0,7.2
357,Vryburg,0,ZA,1559192484,30,-26.96,24.73,13.57,1.39
358,Bulgan,20,MN,1559250510,51,48.81,103.53,8.57,1.15
359,Yulara,0,AU,1559253198,56,-25.24,130.99,6.0,3.6
360,Gizo,0,IL,1559183782,37,31.8,34.94,30.0,3.1
361,Bilibino,76,RU,0,80,68.06,166.44,1.27,1.49
362,Miraflores,100,CO,1559212700,52,5.2,-73.14,21.77,2.74
363,Kichmengskiy Gorodok,98,RU,1559173802,93,59.99,45.81,14.37,4.59
364,Gelemso,61,ET,1559185067,61,8.81,40.52,21.57,3.4
365,Dvinskoy,54,RU,1559172567,69,62.16,45.12,13.07,3.13
366,Soyo,75,AO,1559193263,78,-6.13,12.37,27.0,3.6
367,Caravelas,12,BR,1559206817,82,-17.73,-39.27,26.17,2.13
368,Ngunguru,19,NZ,1559244107,91,-35.62,174.5,15.0,9.77
369,Batsfjord,40,NO,0,81,70.63,29.72,7.0,11.8
370,Redlands,1,US,1559219958,53,34.06,-117.19,26.67,2.52
371,Erdenet,12,MN,1559250330,49,49.03,104.04,9.07,0.93
372,Tautira,40,PF,1559233195,88,-17.73,-149.15,25.0,1.5
373,Sambava,69,MG,1559184990,96,-14.27,50.17,19.67,1.1
374,Ambon,90,FR,1559189920,77,47.55,-2.56,18.89,2.6
375,Tura,3,IN,1559171338,88,25.52,90.21,25.17,2.94
376,West Plains,75,US,1559213464,60,36.73,-91.85,23.89,5.7
377,Novoagansk,95,RU,1559165167,63,61.94,76.66,3.37,4.02
378,Darhan,16,MN,1559249757,43,49.49,105.92,10.87,1.73
379,Kawalu,97,ID,1559256792,96,-7.38,108.21,21.27,1.51
380,Lengshuijiang,30,CN,1559252360,87,27.66,111.45,17.97,1.23
381,Bhatkal,91,IN,1559176376,81,13.97,74.57,28.27,3.57
382,Coolum Beach,11,AU,1559248045,44,-26.53,153.09,11.67,0.45
383,Necochea,100,AR,1559214120,55,-38.55,-58.74,11.67,0.89
384,Husavik,66,CA,1559211780,32,50.56,-96.99,24.44,2.68
385,Tawau,75,MY,1559253346,94,4.26,117.89,25.0,1.0
386,Kodinsk,88,RU,1559248060,58,58.6,99.18,16.37,2.94
387,Alizai,20,PK,1559174689,29,33.94,71.55,32.0,4.1
388,Kuusamo,0,FI,1559172386,48,65.96,29.19,12.0,4.1
389,Bakhmach,64,UA,1559180467,86,51.18,32.81,19.97,1.35
390,Havre-Saint-Pierre,90,CA,1559203864,65,50.23,-63.6,8.0,7.7
391,Marquette,5,US,1559210512,50,46.54,-87.4,12.78,6.2
392,Auraiya,0,IN,1559173786,8,26.47,79.52,38.47,1.49
393,Vigeland,75,NO,1559183551,58,58.46,8.52,15.0,4.6
394,Bubaque,13,GW,1559198345,78,11.28,-15.83,26.27,6.24
395,Sari,40,IR,1559178721,68,36.57,53.06,23.0,1.25
396,Hofn,32,IS,1559185210,75,64.25,-15.21,1.97,2.81
397,Corn Island,59,NI,1559214385,72,12.17,-83.04,29.07,4.13
398,Klaksvik,85,FO,1559184908,75,62.23,-6.59,5.0,6.7
399,Leninskoye,40,RU,1559253607,76,54.82,82.85,10.0,5.0
400,Saint-Joseph,0,FR,1559188521,43,43.56,6.97,25.0,4.6
401,Jalu,100,LY,1559187370,16,29.03,21.55,33.87,6.78
402,Bakau,0,GM,1559198325,51,13.48,-16.68,29.0,4.6
403,The Valley,20,AI,1559208956,69,18.22,-63.06,29.0,7.2
404,Khuzhir,82,RU,1559248305,89,53.19,107.35,4.97,1.06
405,Mamit,19,IN,1559170983,85,23.92,92.49,25.97,1.51
406,Hami,0,CN,1559254271,17,42.84,93.51,21.57,5.49
407,Vila Velha,94,BR,1559205265,86,-3.71,-38.6,26.67,4.47
408,Te Anau,51,NZ,1559247426,95,-45.41,167.72,0.77,1.06
409,Makat,0,KZ,1559176484,30,47.65,53.35,27.17,3.83
410,Ovada,20,IT,1559187893,59,44.64,8.65,22.78,2.29
411,Kamenka,0,RU,1559177146,76,53.19,44.05,20.37,3.2
412,Arica,0,CL,1559214350,64,-18.48,-70.32,20.0,5.1
413,Eregli,94,TR,1559183130,23,37.51,34.05,25.77,4.09
414,Jiuquan,62,CN,1559253663,24,39.73,98.49,17.27,3.81
415,Qarchi Gak,0,AF,1559175352,34,37.04,66.79,31.0,2.1
416,Banda Aceh,100,ID,1559258637,76,5.56,95.32,29.07,4.91
417,Kurchum,73,KZ,1559168986,41,48.57,83.65,13.07,2.01
418,Vao,11,EE,1559178990,56,59.1,26.19,11.37,2.0
419,Williston,1,US,1559214014,41,48.15,-103.62,26.0,3.6
420,Barreirinhas,63,BR,1559206189,86,-2.75,-42.83,28.67,1.62
421,Port Hardy,20,CA,1559219039,82,50.7,-127.42,13.0,3.1
422,Sao Felix do Xingu,76,BR,1559208761,59,-6.64,-51.99,31.07,2.43
423,Tefe,40,BR,1559211498,79,-3.35,-64.71,30.0,2.6
424,Russell,90,AR,1559215716,81,-33.01,-68.8,9.0,1.5
425,Dalaba,50,GN,1559197545,45,10.69,-12.25,31.87,2.29
426,Muros,20,ES,1559192526,32,42.77,-9.06,32.78,5.1
427,Sola,75,NO,1559184023,66,58.89,5.65,10.0,8.2
428,Novoseleznevo,15,RU,1559170216,66,55.68,69.21,12.77,3.94
429,Naze,75,NG,1559193426,100,5.43,7.07,24.0,1.0
430,Mackay,90,CA,1559215275,62,53.65,-115.58,17.0,3.1
431,Beringovskiy,28,RU,1559225977,71,63.05,179.32,4.67,1.47
432,Broken Hill,0,AU,1559251529,74,-31.97,141.45,3.0,2.1
433,Nurota,26,UZ,1559175012,38,40.56,65.69,25.87,6.83
434,Morrope,75,PE,1559215480,29,-6.54,-80.02,19.0,4.6
435,Gornopravdinsk,97,RU,1559167982,63,60.06,69.92,11.17,1.89
436,Guozhen,96,CN,1559251741,80,29.3,113.14,21.77,1.62
437,Saint-Pierre,0,FR,1559187936,63,48.95,4.24,21.0,3.6
438,Nenjiang,41,CN,1559245210,91,49.17,125.23,6.87,3.23
439,At-Bashi,85,KG,1559172472,46,41.17,75.81,10.57,0.69
440,San Juan,40,PR,1559209663,78,18.47,-66.12,28.33,3.1
441,Ukiah,1,US,1559220583,52,39.15,-123.21,22.78,1.69
442,Alcantara,93,PH,1559251459,85,9.97,123.41,23.67,1.74
443,Zyryanka,21,RU,1559229785,48,65.73,150.89,14.57,2.11
444,Saint-Prosper,93,CA,1559206529,58,46.21,-70.48,18.33,1.34
445,La Mira,71,MX,1559218400,75,18.04,-102.33,27.57,4.51
446,Azacualpa,75,HN,1559215381,70,15.34,-88.55,34.44,2.1
447,Samarinda,60,ID,1559253985,96,-0.5,117.14,23.57,0.45
448,Cabedelo,40,BR,1559204677,62,-6.97,-34.84,30.0,6.2
449,Glenwood Springs,1,US,1559216703,54,39.55,-107.33,17.0,0.99
450,Uusikaupunki,0,FI,1559179169,46,60.8,21.41,12.22,7.2
451,Tianpeng,72,CN,1559251988,79,28.88,112.34,22.07,1.39
452,Karpathos,20,GR,1559185090,83,35.51,27.21,22.0,7.7
453,Taltal,0,CL,1559215160,50,-25.41,-70.49,19.97,3.56
454,Blackfoot,20,US,1559217222,48,43.19,-112.35,20.56,3.1
455,Atambua,22,ID,1559252957,72,-9.11,124.89,27.47,8.96
456,Paragominas,73,BR,1559207297,86,-3.0,-47.35,28.57,1.91
457,Kununurra,0,AU,1559252702,35,-15.77,128.74,22.0,4.6
458,Cervo,75,BR,1559208971,41,-22.19,-46.24,26.0,3.24
459,Sao Marcos,90,BR,1559210929,93,-28.97,-51.07,16.11,3.1
460,Smithers,75,CA,1559217653,52,54.78,-127.17,18.0,1.5
461,Iracoubo,57,GF,1559207889,68,5.48,-53.21,29.37,4.49
462,Beyneu,76,KZ,1559176581,33,45.32,55.19,28.57,3.72
463,Katangli,0,RU,1559240171,92,51.71,143.23,4.87,2.23
464,Bossier City,90,US,1559214554,69,32.52,-93.73,28.0,4.1
465,San Policarpo,100,PH,1559250732,75,12.18,125.51,28.87,2.35
466,Anshun,35,CN,1559253863,88,26.25,105.93,13.77,1.88
467,Yanam,73,IN,1559174251,77,16.73,82.22,30.17,2.58
468,Nizhniy Baskunchak,15,RU,1559177907,45,48.22,46.83,25.37,3.94
469,Mingaora,88,PK,1559174369,27,34.78,72.36,20.37,5.41
470,Kahului,20,US,1559231077,64,20.89,-156.47,24.0,5.38
471,Rovaniemi,0,FI,1559172221,53,66.5,25.72,10.0,10.3
472,Portland,90,US,1559219204,77,45.52,-122.67,18.89,2.1
473,Santiago,75,CL,1559216219,44,-33.44,-70.65,21.67,1.5
474,Zubova Polyana,3,RU,1559177133,81,54.08,42.84,20.37,2.4
475,Puerto Escondido,90,MX,1559217371,70,15.86,-97.07,29.0,3.1
476,Lukovetskiy,0,RU,1559171483,35,64.29,41.92,14.0,2.0
477,Daru,98,SL,1559197477,80,7.99,-10.85,27.47,2.88
478,Nouakchott,68,MR,1559197673,61,18.08,-15.98,26.0,10.8
479,Ahuimanu,20,US,1559231343,65,21.44,-157.84,27.22,3.6
480,Bandar,100,ID,1559257461,97,-4.2,104.14,22.57,1.48
481,Saint George,40,GR,1559185610,30,39.45,22.34,28.0,4.6
482,Andros Town,40,BS,1559211748,62,24.73,-77.79,30.0,5.7
483,Kilimatinde,0,TZ,1559187838,59,-5.75,34.82,19.77,1.46
484,Weinan,0,CN,1559251888,63,34.5,109.46,19.0,1.0
485,Guerrero Negro,74,MX,1559220043,84,27.97,-114.04,16.67,4.36
486,Robat Karim,20,IR,1559179366,25,35.49,51.08,25.0,9.3
487,Poya,64,NC,1559244552,75,-21.35,165.16,23.07,3.94
488,Andernach,75,DE,1559186775,72,50.44,7.4,20.0,2.1
489,Hambantota,100,LK,1559175586,82,6.12,81.12,27.87,8.05
490,Beaverlodge,75,CA,1559215636,45,55.21,-119.43,18.0,5.7
491,San,52,ML,1559195517,13,13.3,-4.9,42.17,1.64
492,Berberati,86,CF,1559191446,81,4.26,15.79,23.87,0.97
493,Williams Lake,40,CA,1559217345,40,52.13,-122.14,20.0,1.5
494,Rundu,0,NA,1559192663,23,-17.91,19.77,24.0,1.5
495,Namibe,20,AO,1559194210,77,-15.19,12.15,20.0,6.2
496,Boromo,35,BF,1559195203,29,11.74,-2.93,38.67,3.63
497,Majene,99,ID,1559253838,75,-3.54,118.97,28.77,8.52
498,Quatre Cocos,20,MU,1559183787,77,-20.21,57.76,20.56,3.6
499,Moa,1,CU,1559211540,83,20.66,-74.95,26.57,1.63
500,Santa Isabel,75,CO,1559213218,94,4.71,-75.1,24.0,4.1
501,Shimoda,68,JP,1559244786,85,34.7,138.93,20.0,1.24
502,Ozinki,24,RU,1559176403,55,51.2,49.73,23.17,1.91
503,Saint-Georges,82,CA,1559206595,58,46.12,-70.67,18.89,1.34
504,Khandyga,98,RU,1559236788,56,62.65,135.58,9.97,2.66
505,Sangar,0,RU,1559237606,51,63.92,127.47,8.67,2.02
506,Gamba,16,CN,1559257783,43,28.28,88.52,3.47,2.97
507,Kabanjahe,40,ID,1559258115,100,3.1,98.49,26.0,1.0
508,Moron,100,VE,1559210993,40,10.49,-68.2,35.57,1.32
509,Morgan City,1,US,1559214339,58,29.7,-91.21,32.22,3.6
510,Port-Cartier,75,CA,1559204706,87,50.03,-66.88,12.78,4.1
511,Teya,75,MX,1559214884,50,21.05,-89.07,36.11,7.7
512,Rio Casca,20,BR,1559207895,57,-20.23,-42.65,26.87,3.41
513,Malumfashi,100,NG,1559192666,44,11.79,7.62,31.47,2.83
514,Hamilton,40,BM,1559207638,74,32.3,-64.78,27.0,6.7
515,Maceio,75,BR,1559205155,62,-9.67,-35.74,29.0,3.1
516,Tulu Bolo,58,ET,1559185637,64,8.66,38.21,17.37,1.7
517,Acapulco,75,MX,1559217939,70,16.86,-99.88,30.0,3.6
518,Haines Junction,38,CA,1559217295,31,60.75,-137.51,11.67,2.49
519,Dudinka,90,RU,0,100,69.41,86.18,1.0,5.0
520,Alofi,5,NU,1559238322,94,-19.06,-169.92,21.0,0.5
521,Macas,90,EC,1559214616,100,-2.3,-78.12,20.0,2.6
522,Palmer,1,US,1559219518,54,61.6,-149.11,13.89,0.61
523,Waddan,29,LY,1559188651,26,29.16,16.14,32.77,6.37
524,Novyy Urengoy,99,RU,1559160834,96,66.08,76.63,0.27,4.01
525,Segezha,0,RU,1559173849,45,63.74,34.31,12.57,2.86
526,Kolokani,42,ML,1559196239,13,13.58,-8.03,41.67,1.87
527,Tilichiki,48,RU,1559230985,61,60.47,166.1,8.67,2.59
528,San Rafael,75,AR,1559215827,93,-34.61,-68.33,6.0,1.34
529,Rorvik,75,NO,1559178200,75,64.86,11.24,7.0,2.1
530,Ibirama,100,BR,1559210321,99,-27.05,-49.52,18.89,2.35
531,Warri,100,NG,1559193734,88,5.52,5.75,25.47,3.49
532,Aguada de Pasajeros,40,CU,1559212759,70,22.38,-80.85,30.0,3.6
533,Campbell River,5,CA,1559218707,55,50.02,-125.24,20.56,1.44
534,Collie,100,AU,1559257793,34,-33.36,116.15,16.67,2.28
535,Hagersville,90,CA,1559209519,88,42.96,-80.05,21.11,4.6
536,Carutapera,100,BR,1559206806,92,-1.2,-46.02,27.07,3.03
537,Los Llanos de Aridane,20,ES,1559196889,60,28.66,-17.92,23.0,4.1
538,Saint-Ambroise,75,FR,1559189534,60,47.25,-0.65,23.33,1.0
539,Santo Tomas,100,PH,1559251083,84,17.4,121.77,25.47,1.11
540,Sorong,97,ID,1559250633,95,-0.86,131.25,24.47,0.87
541,Okara,0,PK,1559174678,7,30.81,73.45,38.87,1.76
542,Pangody,100,RU,1559161721,95,65.85,74.49,0.37,7.1
543,Naliya,0,IN,1559176738,84,23.26,68.83,28.97,5.55
544,Hunterville,0,ZA,1559191693,32,-26.77,27.93,12.0,0.5
545,Alekseyevka,0,RU,1559175581,39,53.25,50.49,26.0,1.0
546,Uyuni,7,BO,1559213722,14,-20.46,-66.82,11.67,8.42
547,Shenjiamen,83,CN,1559249455,91,29.96,122.3,20.87,2.67
548,Qaqortoq,20,GL,1559195384,14,60.72,-46.03,16.0,9.3
549,Moramanga,9,MG,1559185940,95,-18.95,48.23,14.77,1.35
550,Mindelo,0,PT,1559192725,28,41.31,-8.72,31.67,7.2
551,Castanos,90,MX,1559217166,83,26.78,-101.42,26.0,5.22
552,Sorland,20,NO,0,70,67.67,12.69,9.0,4.6
553,Sussex,90,CA,1559205447,71,45.72,-65.51,15.56,6.2
